City_ID,City,Lat,Lng,Max Temp,Humidity,Cloudiness,Wind Speed,Country,Date
0,yellowknife,62.456,-114.3525,15.29,100,40,0.0,CA,1690788647
1,adamstown,-25.066,-130.1015,18.92,61,63,10.25,PN,1690788725
2,utrik,11.2278,169.8474,28.37,80,80,8.54,MH,1690788726
3,lillebonne,49.5203,0.5362,18.6,85,100,6.99,FR,1690788672
4,ust-nera,64.5667,143.2,7.97,95,100,3.26,RU,1690788588
5,nyurba,63.2842,118.3319,22.21,25,3,4.29,RU,1690788726
6,olonkinbyen,70.9221,-8.7187,6.25,90,100,1.32,SJ,1690788560
7,sumbe,-11.2061,13.8437,21.15,81,76,0.9,AO,1690788727
8,columbus,39.9612,-82.9988,19.62,93,100,1.54,US,1690788650
9,puerto ayora,-0.7393,-90.3518,24.19,96,85,1.34,EC,1690788727
10,hithadhoo,-0.6,73.0833,28.1,71,95,0.9,MV,1690788727
11,petropavlovsk-kamchatsky,53.0452,158.6483,13.33,82,75,4.0,RU,1690788728
12,georgetown,5.4112,100.3354,30.96,70,20,3.6,MY,1690788728
13,iqaluit,63.7506,-68.5145,3.85,100,100,1.03,CA,1690788728
14,college,64.8569,-147.8028,18.97,80,75,1.54,US,1690788562
15,vorgashor,67.5833,63.95,24.28,47,85,2.43,RU,1690788602
16,badger,64.8,-147.5333,18.93,83,20,1.54,US,1690788729
17,qamdo,31.1667,97.2333,17.95,41,100,2.02,CN,1690788729
18,port-aux-francais,-49.35,70.2167,2.28,61,23,7.25,TF,1690788729
19,qusmuryn,52.4503,64.6311,29.34,32,35,2.59,KZ,1690788729
20,ribeira grande,38.5167,-28.7,24.22,94,40,3.09,PT,1690788730
21,papatowai,-46.5619,169.4708,7.52,94,75,2.27,NZ,1690788730
22,kruisfontein,-34.0033,24.7314,12.71,77,99,11.05,ZA,1690788730
23,port elizabeth,-33.918,25.5701,13.94,66,20,10.8,ZA,1690788652
24,pingliang,35.5392,106.6861,26.36,64,100,2.07,CN,1690788730
25,warman,52.3168,-106.5679,19.95,56,40,6.17,CA,1690788731
26,laguna,38.421,-121.4238,24.62,43,0,3.6,US,1690788731
27,jamestown,42.097,-79.2353,18.77,87,0,3.6,US,1690788535
28,mbarara,-0.608,30.65,24.45,43,87,2.23,UG,1690788731
29,albany,42.6001,-73.9662,15.45,87,80,0.45,US,1690788637
30,bredasdorp,-34.5322,20.0403,10.36,79,98,6.59,ZA,1690788592
31,ushuaia,-54.8,-68.3,3.81,65,0,2.06,AR,1690788558
32,munirabad,15.3333,76.3333,29.28,59,100,10.53,IN,1690788732
33,gadzhiyevo,69.2551,33.3362,11.37,89,100,4.47,RU,1690788732
34,nemuro,43.3236,145.575,18.5,97,100,6.8,JP,1690788732
35,vilyuysk,63.7553,121.6247,20.36,30,0,5.77,RU,1690788733
36,margaret river,-33.95,115.0667,15.7,63,100,4.04,AU,1690788733
37,bilibino,68.0546,166.4372,7.25,88,100,1.1,RU,1690788733
38,tamanrasset,22.785,5.5228,30.95,10,0,2.57,DZ,1690788733
39,waitangi,-43.9535,-176.5597,9.34,86,8,0.89,NZ,1690788548
40,aberdeen,57.1437,-2.0981,15.11,99,75,0.51,GB,1690788734
41,zhalantun,48.0,122.7167,29.16,76,78,6.71,CN,1690788734
42,torghay,49.6339,63.4981,33.62,22,100,2.68,KZ,1690788734
43,piton saint-leu,-21.2196,55.3151,25.04,53,0,2.06,RE,1690788735
44,kingston,17.997,-76.7936,27.53,74,20,2.06,JM,1690788623
45,qaqortoq,60.7167,-46.0333,6.56,80,86,0.74,GL,1690788735
46,nikolayevsk-on-amure,53.1406,140.73,23.02,57,98,1.27,RU,1690788735
47,el calafate,-50.3408,-72.2768,-4.0,76,100,1.03,AR,1690788736
48,acarau,-2.8856,-40.12,25.57,83,4,7.62,BR,1690788736
49,vila franca do campo,37.7167,-25.4333,26.22,90,28,1.21,PT,1690788736
50,timmins,48.4669,-81.3331,8.9,93,75,2.06,CA,1690788708
51,ust-tsilma,65.441,52.1498,28.62,39,71,3.36,RU,1690788736
52,invercargill,-46.4,168.35,8.34,87,80,2.24,NZ,1690788737
53,debark',13.1561,37.8981,16.04,67,72,1.81,ET,1690788737
54,stanley,54.868,-1.6985,16.39,94,75,1.54,GB,1690788737
55,albertina,-22.2008,-46.6158,11.55,91,0,2.02,BR,1690788737
56,tambacounda,13.7539,-13.7586,26.03,94,0,1.03,SN,1690788738
57,nagqu,31.5,92.0,16.4,46,100,4.71,CN,1690788669
58,lebu,-37.6167,-73.65,12.08,91,100,3.03,CL,1690788738
59,richards bay,-28.783,32.0377,19.35,57,16,1.67,ZA,1690788738
60,nuuk,64.1835,-51.7216,2.34,100,100,2.57,GL,1690788679
61,thompson,55.7435,-97.8558,12.09,94,100,0.0,CA,1690788739
62,jolo,6.05,121.0167,29.53,67,4,3.69,PH,1690788739
63,ilulissat,69.2167,-51.1,4.01,100,100,2.06,GL,1690788739
64,pervomaysk,48.0443,30.8507,24.23,61,100,2.43,UA,1690788739
65,blackmans bay,-43.0167,147.3167,10.07,89,73,13.21,AU,1690788740
66,afaahiti,-17.75,-149.2833,21.93,76,14,9.65,PF,1690788579
67,sao tome,0.3365,6.7273,24.0,83,88,5.56,ST,1690788740
68,yumaguzino,52.9041,56.3933,27.7,40,7,3.38,RU,1690788740
69,hilo,19.7297,-155.09,22.92,97,100,4.63,US,1690788740
70,happy valley-goose bay,53.3168,-60.3315,13.17,76,75,1.03,CA,1690788741
71,avarua,-21.2078,-159.775,24.03,100,6,3.09,CK,1690788741
72,gebeit,21.0667,36.3167,37.64,9,6,5.51,SD,1690788666
73,traverse city,44.7631,-85.6206,14.11,96,0,0.0,US,1690788741
74,vilyuchinsk,52.9306,158.4028,14.15,91,100,2.68,RU,1690788741
75,sandnessjoen,66.0217,12.6316,14.29,94,75,1.03,NO,1690788742
76,klyuchi,52.2667,79.1667,29.96,32,1,3.95,RU,1690788742
77,genhe,50.7833,121.5167,31.54,41,100,5.18,CN,1690788742
78,margate,51.3813,1.3862,19.37,90,100,4.02,GB,1690788742
79,edinburgh of the seven seas,-37.0676,-12.3116,13.44,87,99,8.39,SH,1690788742
80,borskoye,53.0333,51.7167,25.16,41,0,6.41,RU,1690788743
81,grytviken,-54.2811,-36.5092,-4.21,81,100,5.87,GS,1690788743
82,turkan,40.3639,50.215,29.1,45,0,8.23,AZ,1690788743
83,nadym,65.5333,72.5167,22.39,42,60,6.1,RU,1690788603
84,hami,42.8,93.45,24.47,53,100,1.84,CN,1690788743
85,tiksi,71.6872,128.8694,4.68,83,29,3.06,RU,1690788744
86,mount pearl,47.5166,-52.7813,14.52,97,100,2.57,CA,1690788744
87,zliten,32.4674,14.5687,28.62,67,0,2.63,LY,1690788744
88,holualoa,19.6228,-155.9522,24.91,76,100,2.06,US,1690788744
89,st. john's,47.5649,-52.7093,14.98,97,100,3.09,CA,1690788633
90,mujiayingzi,42.1167,118.7833,26.88,68,100,2.73,CN,1690788745
91,saipan,15.1355,145.701,30.39,100,75,3.6,MP,1690788745
92,west island,-12.1568,96.8225,24.99,88,75,11.32,CC,1690788745
93,hawaiian paradise park,19.5933,-154.9731,22.8,97,100,4.63,US,1690788746
94,subotica,46.1,19.6667,22.93,45,100,7.11,RS,1690788746
95,cabedelo,-6.9811,-34.8339,21.37,85,7,5.25,BR,1690788746
96,enewetak,11.3474,162.3373,27.64,83,100,4.31,MH,1690788746
97,port alfred,-33.5906,26.891,14.54,60,66,5.81,ZA,1690788746
98,punta arenas,-53.15,-70.9167,2.46,78,99,4.1,CL,1690788591
99,sanya,18.2431,109.505,29.09,84,40,1.0,CN,1690788747
100,phillaur,31.0292,75.7842,35.6,45,1,2.15,IN,1690788747
101,hamilton,39.1834,-84.5333,21.05,88,0,0.45,US,1690788747
102,ketchikan,55.3422,-131.6461,15.26,88,100,1.54,US,1690788748
103,korhogo,9.45,-5.6333,22.15,95,100,1.69,CI,1690788534
104,saryaghash,41.45,69.1667,36.96,10,0,5.77,KZ,1690788748
105,lihue,21.9789,-159.3672,26.77,79,0,6.69,US,1690788748
106,whitehorse,60.7161,-135.0538,16.43,77,75,2.57,CA,1690788749
107,san patricio,28.017,-97.5169,29.92,89,32,3.02,US,1690788750
108,guayaramerin,-10.8368,-65.3614,20.56,66,1,0.55,BO,1690788750
109,meadow lake,34.8014,-106.5436,27.67,34,89,2.69,US,1690788750
110,severo-yeniseyskiy,60.3725,93.0408,21.3,85,89,0.91,RU,1690788751
111,kodiak,57.79,-152.4072,13.73,82,0,3.09,US,1690788751
112,grand falls-windsor,48.9332,-55.6649,11.39,93,93,0.7,CA,1690788739
113,puerto natales,-51.7236,-72.4875,-2.24,89,46,1.97,CL,1690788543
114,mahajanga,-15.7167,46.3167,30.01,39,20,4.63,MG,1690788751
115,kerimaki,61.9167,29.2833,21.97,60,0,1.03,FI,1690788752
116,yaren,-0.5472,166.916,28.7,72,77,2.8,NR,1690788752
117,brisas barra de suchiate,14.55,-92.2167,27.41,78,99,2.06,MX,1690788752
118,portland,45.5234,-122.6762,18.99,70,0,6.17,US,1690788675
119,walvis bay,-22.9575,14.5053,15.53,31,0,3.6,NA,1690788752
120,ardakan,32.31,54.0175,37.72,9,0,1.83,IR,1690788753
121,pacific grove,36.6177,-121.9166,14.63,89,75,2.57,US,1690788695
122,udachny,66.4167,112.4,24.14,28,0,4.77,RU,1690788753
123,chonchi,-42.6128,-73.8092,8.95,94,100,2.74,CL,1690788561
124,solnechnyy,50.7214,136.6319,24.76,56,94,3.48,RU,1690788754
125,castillos,-34.1667,-53.8333,9.89,77,100,1.49,UY,1690788754
126,mogadishu,2.0371,45.3438,27.93,83,75,7.72,SO,1690788754
127,san luis de la loma,17.2706,-100.8939,25.68,87,74,1.66,MX,1690788754
128,iskateley,67.6803,53.1512,28.32,55,51,3.85,RU,1690788754
129,qui nhon,13.7667,109.2333,30.56,64,100,5.11,VN,1690788755
130,palikir - national government center,6.9248,158.1611,28.41,75,100,3.56,FM,1690788755
131,magadan,59.5667,150.8,16.41,85,100,3.75,RU,1690788755
132,luderitz,-26.6481,15.1594,13.48,43,0,4.79,NA,1690788755
133,howard springs,-12.497,131.047,33.95,28,19,2.38,AU,1690788755
134,akureyri,65.6835,-18.0878,9.96,93,75,2.57,IS,1690788756
135,saiha,22.4833,92.9667,27.73,92,89,1.25,IN,1690788756
136,laojunmiao,39.8333,97.7333,26.17,32,64,8.63,CN,1690788756
137,dudinka,69.4058,86.1778,23.53,58,74,6.89,RU,1690788756
138,swakopmund,-22.6833,14.5333,15.47,34,0,3.64,NA,1690788756
139,talnakh,69.4865,88.3972,25.02,57,30,4.3,RU,1690788757
140,vozhega,60.4725,40.2213,18.22,95,100,1.29,RU,1690788757
141,port mathurin,-19.6833,63.4167,23.46,70,53,8.6,MU,1690788757
142,hermanus,-34.4187,19.2345,10.45,69,88,7.42,ZA,1690788757
143,nar'yan-mar,67.6713,53.087,28.35,56,57,3.87,RU,1690788758
144,acapulco de juarez,16.8634,-99.8901,25.9,83,75,3.6,MX,1690788742
145,jinchang,38.4953,102.1739,32.75,24,17,5.33,CN,1690788758
146,jianshui,23.6363,102.8264,26.27,73,100,2.48,CN,1690788758
147,roswell,34.0232,-84.3616,23.93,91,0,2.06,US,1690788685
148,california city,35.1258,-117.9859,29.67,19,0,11.32,US,1690788569
149,tolanaro,-25.0319,46.9987,24.04,69,0,1.03,MG,1690788759
150,fale old settlement,-9.3852,-171.2468,28.48,77,54,7.16,TK,1690788759
151,rabaul,-4.1967,152.1721,26.73,83,74,3.48,PG,1690788759
152,ochobo,7.183,7.9769,24.94,92,100,2.74,NG,1690788759
153,basse santa su,13.31,-14.2137,24.19,87,100,1.76,GM,1690788760
154,beruniy,41.6911,60.7525,36.98,34,0,4.12,UZ,1690788760
155,tocache,-8.1842,-76.5125,20.43,87,87,0.16,PE,1690788760
156,codrington,-38.2667,141.9667,12.4,76,25,8.87,AU,1690788760
157,dunedin,-45.8742,170.5036,10.45,76,94,2.24,NZ,1690788573
158,prince rupert,54.3161,-130.3201,14.83,94,100,1.54,CA,1690788589
159,caconda,-13.7333,15.0667,20.52,25,9,2.42,AO,1690788761
160,kharp,66.8014,65.8081,23.32,47,89,1.92,RU,1690788761
161,medvedevo,56.6339,47.804,21.85,72,84,1.77,RU,1690788761
162,atafu village,-8.5421,-172.5159,28.45,77,100,6.79,TK,1690788595
163,launceston,-41.45,147.1667,11.56,91,100,12.86,AU,1690788762
164,sao jose da coroa grande,-8.8978,-35.1478,22.41,84,14,3.36,BR,1690788762
165,aasiaat,68.7098,-52.8699,2.87,91,100,2.51,GL,1690788762
166,uturoa,-16.7333,-151.4333,26.33,77,66,9.81,PF,1690788762
167,ola,59.5833,151.2833,16.75,84,100,4.18,RU,1690788762
168,longyearbyen,78.2186,15.6401,8.91,66,75,1.54,SJ,1690788763
169,jijiga,9.35,42.8,22.8,57,50,6.74,ET,1690788763
170,sabang,5.8933,95.3214,28.02,79,100,10.26,ID,1690788763
171,ancud,-41.8697,-73.8203,10.78,89,100,4.96,CL,1690788763
172,kyren,51.6828,102.1408,30.8,41,100,1.05,RU,1690788763
173,selty,57.3132,52.1345,24.41,73,85,3.25,RU,1690788764
174,remire-montjoly,4.9167,-52.2667,23.02,94,0,0.0,GF,1690788764
175,susuman,62.7833,148.1667,8.4,83,100,2.03,RU,1690788764
176,kununurra,-15.7667,128.7333,33.99,24,46,4.63,AU,1690788764
177,tamasi,46.6333,18.2833,20.38,46,65,6.73,HU,1690788764
178,bairnsdale,-37.8333,147.6167,15.59,50,0,1.34,AU,1690788765
179,alofi,-19.0595,-169.9187,20.94,94,100,5.14,NU,1690788545
180,gofitskoye,45.0792,43.0464,29.55,36,8,5.78,RU,1690788765
181,papao,-17.75,-149.55,22.82,75,36,11.43,PF,1690788765
182,la paz,-16.5,-68.15,4.76,56,0,1.03,BO,1690788603
183,boende,-0.2167,20.8667,28.35,63,100,1.74,CD,1690788766
184,olyokminsk,60.3736,120.4264,26.7,30,100,3.48,RU,1690788766
185,pontal do parana,-25.6533,-48.5128,13.41,94,90,1.61,BR,1690788766
186,coari,-4.085,-63.1414,23.61,83,78,0.82,BR,1690788766
187,soria,41.6667,-2.6667,16.73,100,0,0.15,ES,1690788767
188,payyannur,12.1,75.2,29.01,70,26,5.37,IN,1690788767
189,illizi,26.4833,8.4667,35.89,8,0,1.56,DZ,1690788767
190,bethel,41.3712,-73.414,16.47,86,0,2.06,US,1690788767
191,puerto deseado,-47.7503,-65.8938,1.76,63,100,4.8,AR,1690788767
192,salinopolis,-0.6136,-47.3561,25.55,86,6,4.38,BR,1690788768
193,key west,24.5557,-81.7826,31.0,76,75,2.57,US,1690788768
194,sungai penuh,-2.0833,101.3833,22.12,88,100,0.37,ID,1690788768
195,hasaki,35.7333,140.8333,34.22,83,98,8.98,JP,1690788768
196,puerto baquerizo moreno,-0.9,-89.6,24.16,83,61,5.97,EC,1690788670
197,kulob,37.9145,69.783,37.42,19,0,3.0,TJ,1690788769
198,mil'kovo,55.6078,37.7956,23.27,45,9,3.37,RU,1690788769
199,bambanglipuro,-7.95,110.2833,26.71,67,48,7.98,ID,1690788769
200,preobrazheniye,42.9019,133.9064,26.62,64,12,3.06,RU,1690788769
201,taourirt,34.4073,-2.8973,31.01,31,0,0.67,MA,1690788769
202,kasongo,-4.45,26.6667,33.01,18,7,2.42,CD,1690788770
203,homer,59.6425,-151.5483,16.0,77,100,0.0,US,1690788770
204,nurota,40.5614,65.6886,38.38,13,0,7.83,UZ,1690788770
205,sao gabriel da cachoeira,-0.1303,-67.0892,22.49,97,91,0.81,BR,1690788770
206,tyukhtet,56.5389,89.3011,22.43,75,54,3.92,RU,1690788770
207,fonte boa,-2.4959,-66.2662,23.3,94,100,1.18,BR,1690788771
208,howrah,22.5892,88.3103,34.0,70,75,3.6,IN,1690788670
209,steyr,48.0427,14.4213,20.12,60,99,2.86,AT,1690788771
210,anadyr,64.75,177.4833,13.28,88,40,2.0,RU,1690788771
211,buurhakaba,2.8026,44.0781,28.35,48,86,8.55,SO,1690788772
212,sisimiut,66.9395,-53.6735,4.7,87,100,1.49,GL,1690788589
213,america dourada,-11.4553,-41.4361,18.45,76,99,5.76,BR,1690788772
214,libenge,3.65,18.6333,28.83,66,54,1.46,CD,1690788773
215,brookings,44.3114,-96.7984,18.99,83,0,3.6,US,1690788773
216,cadale,2.7603,46.3222,27.3,67,39,9.76,SO,1690788773
217,renqiu,38.6989,116.0936,30.51,78,100,3.21,CN,1690788773
218,nago,26.5881,127.9761,30.24,91,100,8.91,JP,1690788774
219,brigantine,39.4101,-74.3646,21.11,92,1,2.79,US,1690788774
220,nogliki,51.8333,143.1667,15.43,86,21,1.41,RU,1690788774
221,arraial do cabo,-22.9661,-42.0278,19.45,81,84,5.13,BR,1690788775
222,sakakah,29.9697,40.2064,36.76,8,0,3.5,SA,1690788775
223,fauske,67.2588,15.3918,22.19,58,33,3.18,NO,1690788775
224,taoudenni,22.6783,-3.9836,38.19,16,17,5.81,ML,1690788775
225,uray,60.1247,64.7758,24.84,45,65,2.78,RU,1690788775
226,cuamba,-14.8031,36.5372,27.25,28,1,1.8,MZ,1690788776
227,malkinia gorna,52.6922,22.0284,20.5,60,97,5.07,PL,1690788776
228,dunay,42.8803,132.3375,23.34,81,4,4.04,RU,1690788776
229,cabo san lucas,22.8909,-109.9124,31.4,62,0,5.24,MX,1690788776
230,port douglas,-16.4833,145.4667,22.12,85,98,6.05,AU,1690788777
231,cockburn town,21.4612,-71.1419,28.39,81,100,8.36,TC,1690788777
232,alderetes,-26.8167,-65.1333,13.95,77,0,5.14,AR,1690788777
233,muynoq,43.7683,59.0214,32.57,32,100,5.06,UZ,1690788777
234,wailua homesteads,22.0669,-159.378,26.44,84,0,6.69,US,1690788778
235,eyl,7.9803,49.8164,31.07,46,75,11.6,SO,1690788778
236,talamba,30.5271,72.2401,39.26,36,0,0.88,PK,1690788778
237,sitka,57.0531,-135.33,15.94,82,100,0.0,US,1690788778
238,flying fish cove,-10.4217,105.6791,25.82,69,75,6.17,CX,1690788778
239,freetown,8.484,-13.2299,24.84,94,75,1.54,SL,1690788741
240,micheweni,-4.9667,39.8333,26.57,63,25,6.08,TZ,1690788779
241,sumenep,-7.0167,113.8667,28.7,61,100,6.38,ID,1690788779
242,amarante,-6.2411,-42.8547,25.51,49,37,4.55,BR,1690788779
243,linping,30.4225,120.2972,33.97,75,61,5.9,CN,1690788779
244,obo,5.3998,26.4869,21.91,96,100,2.39,CF,1690788780
245,laascaanood,8.4774,47.3597,28.97,43,31,13.42,SO,1690788780
246,beyneu,45.3167,55.2,32.91,22,100,1.92,KZ,1690788780
247,gewane,10.1664,40.6453,34.68,33,7,6.3,ET,1690788780
248,douar tindja,37.1667,9.75,29.06,61,20,6.69,TN,1690788781
249,north bend,43.4065,-124.2243,13.95,100,20,2.57,US,1690788768
250,chimore,-16.9833,-65.1333,19.69,73,0,0.91,BO,1690788781
251,greenville,35.6127,-77.3663,20.09,95,0,0.0,US,1690788708
252,ruokolahti,61.2833,28.8333,21.12,67,100,1.39,FI,1690788781
253,carnarvon,-24.8667,113.6333,22.39,38,0,4.67,AU,1690788634
254,bel ombre,-4.6167,55.4167,26.91,83,40,4.12,SC,1690788551
255,kerch,45.3583,36.4758,26.08,58,42,3.92,UA,1690788623
256,yerofey pavlovich,53.9667,121.9667,29.57,42,12,4.32,RU,1690788782
257,gwanda,-20.9333,29.0,14.69,19,0,2.29,ZW,1690788782
258,crane,31.3974,-102.3501,27.73,44,91,4.47,US,1690788783
259,fortuna,40.5982,-124.1573,15.19,100,100,1.54,US,1690788783
260,markovo,57.3206,107.0881,28.11,40,55,5.17,RU,1690788783
261,san juan del sur,11.2529,-85.8705,26.76,85,100,6.55,NI,1690788783
262,churapcha,62.0025,132.4325,18.02,58,3,6.63,RU,1690788784
263,valdivia,-39.8142,-73.2459,8.05,97,100,1.03,CL,1690788726
264,hirara,24.8,125.2833,30.92,70,75,6.69,JP,1690788784
265,blackwater,-23.5833,148.8833,23.16,67,69,3.76,AU,1690788784
266,jiazi,22.8779,116.067,28.85,77,100,4.63,CN,1690788784
267,barah,13.7,30.3667,29.23,56,99,6.05,SD,1690788785
268,miles city,46.4083,-105.8406,22.54,60,0,3.6,US,1690788785
269,sroda wielkopolska,52.2284,17.2762,20.03,61,100,5.49,PL,1690788785
270,fort st. john,56.2499,-120.8529,15.94,63,100,2.57,CA,1690788738
271,keflavik,64.0049,-22.5624,11.95,93,75,1.54,IS,1690788786
272,rizhao,35.4275,119.4553,27.61,86,72,7.51,CN,1690788786
273,newman,37.3138,-121.0208,25.99,56,100,0.45,US,1690788786
274,port saint john's,-31.6229,29.5448,18.68,32,0,6.65,ZA,1690788786
275,shingu,33.7333,135.9833,28.98,74,100,1.97,JP,1690788786
276,imphal,24.8167,93.95,29.1,75,77,1.93,IN,1690788787
277,lorengau,-2.0226,147.2712,28.15,78,96,4.17,PG,1690788787
278,mormugao,15.4,73.8,26.39,85,100,7.0,IN,1690788787
279,pechea,45.6333,27.8,22.4,72,100,5.3,RO,1690788787
280,kerman,30.2832,57.0788,32.92,18,20,3.09,IR,1690788788
281,inirida,3.8653,-67.9239,22.09,99,94,0.74,CO,1690788788
282,coquimbo,-29.9533,-71.3436,11.85,100,100,1.54,CL,1690788590
283,saint-joseph,-21.3667,55.6167,24.15,67,0,4.43,RE,1690788788
284,singapur,1.2897,103.8501,33.97,62,75,6.69,SG,1690788782
285,kita,13.0349,-9.4895,23.51,91,91,3.37,ML,1690788789
286,zemio,5.0314,25.1361,23.24,95,100,1.02,CF,1690788789
287,labytnangi,66.6572,66.4183,23.96,45,88,2.69,RU,1690788789
288,toliara,-23.35,43.6667,26.16,33,40,2.54,MG,1690788789
289,ohara,35.25,140.3833,27.63,83,99,6.25,JP,1690788790
290,bikenibeu village,1.3673,173.1241,25.98,94,100,3.09,KI,1690788790
291,lisakovsk,52.5369,62.4936,29.12,33,75,2.3,KZ,1690788790
292,flin flon,54.7682,-101.865,15.38,62,0,1.83,CA,1690788790
293,tsiombe,-25.3,45.4833,26.81,24,52,1.48,MG,1690788790
294,baiti,13.745,-14.7482,24.66,85,95,2.15,SN,1690788791
295,salalah,17.0151,54.0924,27.05,89,100,4.12,OM,1690788791
296,talcahuano,-36.7167,-73.1167,9.82,100,100,0.0,CL,1690788791
297,lata,40.1629,-8.3327,16.71,62,0,1.73,PT,1690788791
298,kone,-21.0595,164.8658,18.69,77,35,3.48,NC,1690788792
299,salahonda,2.1019,-78.7217,26.81,83,100,6.6,CO,1690788792
300,quelimane,-17.8786,36.8883,23.97,64,0,3.09,MZ,1690788792
301,ghat,24.9647,10.1728,37.83,9,40,2.54,LY,1690788792
302,sao goncalo do amarante,-3.6072,-38.9683,26.74,83,1,3.61,BR,1690788792
303,shahba,32.8551,36.629,28.6,26,0,3.86,SY,1690788793
304,mandalgovi,45.7625,106.2708,31.92,22,45,7.45,MN,1690788793
305,elko,41.0002,-115.5012,22.58,23,69,2.24,US,1690788793
306,suhl,50.6,10.7,16.46,79,100,4.44,DE,1690788793
307,paradip garh,20.3167,86.6167,33.46,62,100,3.11,IN,1690788793
308,horta,38.5333,-28.6333,23.8,97,40,3.09,PT,1690788794
309,pimentel,-6.8367,-79.9342,21.16,83,0,4.12,PE,1690788794
310,batu pahat,1.8548,102.9325,30.09,60,68,4.97,MY,1690788794
311,cecil hills,-33.89,150.8511,20.75,46,0,1.64,AU,1690788794
312,salamanca,40.8333,-6.0,18.88,51,0,2.87,ES,1690788794
313,downpatrick,54.3263,-5.7035,16.72,89,100,7.69,GB,1690788795
314,fort bragg,35.139,-79.006,24.85,90,20,0.0,US,1690788795
315,bubaque,11.2833,-15.8333,26.07,81,98,3.03,GW,1690788795
316,sekondi-takoradi,4.934,-1.7137,24.7,88,82,2.61,GH,1690788795
317,kargasok,59.0556,80.8572,17.71,96,100,3.9,RU,1690788796
318,princeville,45.7668,-61.2985,15.18,98,0,0.0,CA,1690788797
319,kailua-kona,19.6406,-155.9956,26.98,81,100,2.06,US,1690788611
320,kosh-agach,50.0,88.6667,25.5,23,55,0.95,RU,1690788797
321,island harbour,50.724,-1.2758,18.85,96,100,2.68,GB,1690788798
322,tokmok,42.8417,75.3016,35.64,17,16,6.73,KG,1690788764
323,salekhard,66.53,66.6019,24.02,44,71,3.03,RU,1690788798
324,kungur,57.4368,56.9593,27.03,52,23,6.79,RU,1690788798
325,aginskoye,51.1,114.53,34.24,25,100,8.06,RU,1690788798
326,pathein,16.7833,94.7333,27.81,86,100,7.1,MM,1690788799
327,tura,25.5198,90.2201,31.08,76,99,1.57,IN,1690788658
328,east london,-33.0153,27.9116,15.52,41,20,9.77,ZA,1690788799
329,troitsko-pechorsk,62.7084,56.1964,27.17,32,30,3.87,RU,1690788799
330,porto recanati,43.4365,13.6613,27.39,76,8,1.62,IT,1690788800
331,waiuku,-37.25,174.75,12.89,91,10,1.29,NZ,1690788800
332,arno,60.1167,18.6333,17.66,61,54,1.71,SE,1690788800
333,dakhla,23.6848,-15.958,20.01,94,75,10.29,EH,1690788800
334,bodaybo,57.8506,114.1933,24.68,65,73,0.96,RU,1690788801
335,blatnica,44.4864,17.8233,22.83,56,67,2.56,BA,1690788801
336,la passe,45.5549,-0.8967,19.99,66,9,4.7,FR,1690788801
337,kavieng,-2.5744,150.7967,27.9,79,93,5.45,PG,1690788801
338,el nido,11.1858,119.3956,29.55,67,76,4.95,PH,1690788801
339,porlamar,10.958,-63.8491,25.94,85,98,1.63,VE,1690788802
340,coahuayana de hidalgo,18.7,-103.6583,25.27,93,100,1.47,MX,1690788802
341,cill airne,52.05,-9.5167,15.03,94,75,4.12,IE,1690788802
342,tasqala,51.1167,50.3167,26.23,41,3,6.22,KZ,1690788802
343,tralee,52.2704,-9.7026,15.14,94,75,4.12,IE,1690788707
344,arba minch,6.0333,37.55,26.68,53,59,2.43,ET,1690788803
345,hotan,37.0997,79.9269,32.64,15,0,4.15,CN,1690788803
346,nelson bay,-32.7167,152.15,18.33,69,0,2.68,AU,1690788803
347,czersk,53.7959,17.9765,17.48,52,98,4.43,PL,1690788803
348,al bawiti,28.3492,28.8659,31.83,23,0,2.58,EG,1690788804
349,colchani,-20.3,-66.9333,0.45,32,0,0.99,BO,1690788804
350,maragogi,-9.0122,-35.2225,21.98,86,18,2.91,BR,1690788804
351,teknaf,20.8624,92.3058,28.94,79,97,7.21,BD,1690788804
352,sinan,34.8262,126.1086,31.06,73,53,3.61,KR,1690788805
353,razumnoye,50.5344,36.6846,22.6,64,0,3.0,RU,1690788805
354,yarmouth,41.7057,-70.2286,20.03,93,0,1.79,US,1690788805
355,kuqa,41.7278,82.9364,32.94,25,2,6.07,CN,1690788805
356,newberry,34.2746,-81.6187,21.94,94,2,1.92,US,1690788806
357,al hazm,16.1641,44.7769,38.04,15,85,4.86,YE,1690788806
358,alekseyevka,50.6309,38.6903,24.11,50,99,1.42,RU,1690788806
359,sao joao da barra,-21.6403,-41.0511,19.57,82,95,3.18,BR,1690788665
360,turbat,26.0023,63.044,36.06,45,5,4.01,PK,1690788807
361,isafjordur,66.0755,-23.124,8.02,87,20,0.0,IS,1690788580
362,katsuura,35.1333,140.3,27.83,83,100,6.63,JP,1690788657
363,ocean shores,46.9737,-124.1563,16.0,92,0,2.57,US,1690788807
364,mermoz boabab,14.7065,-17.4758,27.88,78,40,2.06,SN,1690788807
365,hadibu,12.65,54.0333,27.49,72,42,11.41,YE,1690788808
366,carutapera,-1.195,-46.02,24.54,92,5,2.87,BR,1690788808
367,ishigaki,24.3448,124.1572,30.07,79,75,4.63,JP,1690788808
368,rio grande,-32.035,-52.0986,8.3,84,54,2.81,BR,1690788808
369,wajir,1.7471,40.0573,26.98,57,75,4.63,KE,1690788808
370,mao,39.8885,4.2658,26.31,69,0,4.63,ES,1690788809
371,belyy yar,53.6039,91.3903,30.94,40,0,3.0,RU,1690788720
372,polna,49.487,15.7188,18.28,77,100,3.74,CZ,1690788809
373,al fuwayliq,26.4432,43.2534,41.11,7,2,7.85,SA,1690788809
374,dowlatabad,32.7998,51.6955,32.82,14,0,0.0,IR,1690788809
375,malaya vishera,58.8454,32.2222,23.56,43,97,1.81,RU,1690788810
376,tual,-5.6667,132.75,25.88,85,70,8.87,ID,1690788790
377,ulverstone,-41.15,146.1667,11.51,94,93,12.39,AU,1690788810
378,pago pago,-14.2781,-170.7025,25.55,100,75,2.06,AS,1690788810
379,cheremukhovo,60.3484,59.9851,24.95,36,55,2.63,RU,1690788810
380,monrovia,6.3005,-10.7969,24.75,86,92,2.08,LR,1690788811
381,maamba,-17.3667,27.15,20.16,16,33,3.31,ZM,1690788811
382,denov,38.2667,67.9,39.63,10,0,5.0,UZ,1690788811
383,khandyga,62.6667,135.6,17.19,68,76,3.88,RU,1690788811
384,polyarnyy,69.1989,33.4478,12.01,89,98,4.56,RU,1690788812
385,cururupu,-1.8283,-44.8683,23.63,96,19,1.63,BR,1690788537
386,vadso,70.0744,29.7487,13.49,94,75,3.09,NO,1690788812
387,doka,13.5167,35.7667,28.14,64,40,4.22,SD,1690788812
388,epernay,49.05,3.95,18.49,77,100,6.56,FR,1690788812
389,san julian,21.0167,-102.1667,13.27,81,100,1.02,MX,1690788813
390,cheremushki,52.8356,91.3944,31.98,32,49,3.07,RU,1690788813
391,nchelenge,-9.3451,28.734,23.29,29,30,1.9,ZM,1690788813
392,igarka,67.4667,86.5833,25.43,56,23,5.5,RU,1690788813
393,malanje,-9.5402,16.341,25.23,30,52,2.45,AO,1690788813
394,erzincan,39.75,39.5,24.61,50,0,0.51,TR,1690788814
395,piedmont,37.8244,-122.2316,17.09,84,40,3.58,US,1690788814
396,coronel suarez,-37.4547,-61.9334,8.45,62,34,3.02,AR,1690788814
397,mishkino,55.3389,63.9175,28.51,34,39,1.58,RU,1690788814
398,trinity beach,-16.7888,145.6968,22.23,83,75,4.12,AU,1690788814
399,bamboo flat,11.7,92.7167,31.05,74,40,8.75,IN,1690788815
400,callao,-12.0667,-77.15,20.4,77,100,3.09,PE,1690788708
401,gubkinskiy,64.434,76.5026,23.95,49,46,6.26,RU,1690788815
402,kutum,14.2,24.6667,28.45,44,50,4.06,SD,1690788815
403,mar del plata,-38.0023,-57.5575,4.01,87,0,2.06,AR,1690788815
404,tazovsky,67.4667,78.7,17.89,69,36,5.35,RU,1690788530
405,san antonio de pale,-1.4014,5.6325,22.61,79,100,6.58,GQ,1690788816
406,souillac,-20.5167,57.5167,23.21,78,40,5.14,MU,1690788816
407,san matias,-16.3667,-58.4,21.92,50,0,1.07,BO,1690788816
408,hengchun,22.0042,120.7439,28.75,74,100,2.41,TW,1690788816
409,lensk,60.7253,114.9278,21.28,83,100,1.91,RU,1690788817
410,miracema do tocantins,-9.5618,-48.3967,26.2,46,60,1.69,BR,1690788817
411,alice springs,-23.7,133.8833,23.75,29,64,5.14,AU,1690788817
412,priargunsk,50.3691,119.1012,32.72,49,100,2.87,RU,1690788817
413,el abiodh sidi cheikh,32.893,0.5484,34.35,19,4,0.77,DZ,1690788818
414,forster,-32.1667,152.5167,16.83,69,0,2.46,AU,1690788818
415,mount isa,-20.7333,139.5,26.87,26,6,5.66,AU,1690788818
416,egilsstadir,65.2653,-14.3948,7.95,93,100,2.57,IS,1690788818
417,yatou,37.15,122.3833,28.51,73,43,4.79,CN,1690788818
418,weno,7.4515,151.8468,28.86,74,21,3.66,FM,1690788819
419,taunggyi,20.7833,97.0333,18.58,98,100,2.77,MM,1690788819
420,kristiansund,63.1115,7.732,16.03,88,75,3.6,NO,1690788819
421,la'ie,21.6477,-157.9253,26.98,76,100,3.13,US,1690788646
422,yeppoon,-23.1333,150.7333,23.88,86,7,2.34,AU,1690788820
423,shitanjing,39.2342,106.3439,30.6,35,57,1.92,CN,1690788820
424,bac lieu,9.285,105.7244,31.35,63,87,5.56,VN,1690788820
425,vega de alatorre,20.0333,-96.6333,25.46,81,90,1.73,MX,1690788820
426,chegdomyn,51.1167,133.0167,27.6,41,99,2.72,RU,1690788821
427,revda,56.801,59.9303,22.15,66,95,2.28,RU,1690788821
428,douz,33.4663,9.0203,33.99,31,51,6.44,TN,1690788821
429,kavaratti,10.5669,72.642,28.39,76,97,7.97,IN,1690788821
430,nova vicosa,-17.8919,-39.3719,21.09,79,100,4.33,BR,1690788538
431,broken hill,-31.95,141.4333,15.18,53,0,3.14,AU,1690788756
432,saint-philippe,-21.3585,55.7679,23.77,71,1,5.12,RE,1690788822
433,kabarnet,0.4919,35.743,25.41,36,21,0.44,KE,1690788822
434,vernon,50.2581,-119.2691,20.34,39,9,0.51,CA,1690788822
435,saint-denis,48.9167,2.3333,18.47,78,100,6.17,FR,1690788822
436,rapar,23.5667,70.6333,33.4,56,52,7.2,IN,1690788823
437,serhiyivka,46.0272,30.3768,25.15,58,72,4.56,UA,1690788823
438,knyaze-volkonskoye,48.4642,135.4567,27.19,53,40,1.16,RU,1690788823
439,christchurch,-43.5333,172.6333,13.11,50,95,4.12,NZ,1690788772
440,tataouine,32.9297,10.4518,30.77,42,16,3.82,TN,1690788823
441,kenai,60.5544,-151.2583,17.05,91,20,2.06,US,1690788824
442,san jeronimo de juarez,17.1333,-100.4667,25.47,88,84,2.17,MX,1690788824
443,burang,30.25,81.1667,17.12,55,81,3.15,CN,1690788824
444,ormara,25.2088,64.6357,28.55,85,100,7.06,PK,1690788824
445,constantia,44.1833,28.65,25.39,61,100,3.14,RO,1690788557
446,cesvaine,56.9667,26.3167,20.47,57,100,2.87,LV,1690788825
447,erdenet,49.0333,104.0833,27.68,49,36,1.15,MN,1690788825
448,caleta de carquin,-11.0925,-77.6267,18.48,84,42,3.04,PE,1690788825
449,tabou,4.423,-7.3528,24.33,91,100,2.73,CI,1690788825
450,tulnici,45.9167,26.6667,16.81,97,100,1.07,RO,1690788825
451,kismayo,-0.3582,42.5454,27.43,63,53,7.65,SO,1690788827
452,mutuali,-14.8706,37.0044,27.03,29,1,1.64,MZ,1690788827
453,xuddur,4.1213,43.8894,28.91,39,43,10.38,SO,1690788827
454,cayambe,0.05,-78.1333,5.59,90,97,3.24,EC,1690788827
455,kodinsk,58.6881,99.1844,18.66,96,100,2.72,RU,1690788828
456,beroroha,-21.6667,45.1667,28.59,28,5,1.63,MG,1690788770
457,ulysses,37.5814,-101.3552,25.53,56,0,3.6,US,1690788736
458,sherbakul',54.6316,72.3963,27.51,38,90,1.59,RU,1690788828
459,urangan,-25.3,152.9,19.62,70,11,4.21,AU,1690788695
460,nizhneudinsk,54.9076,99.0276,26.67,47,75,1.57,RU,1690788829
461,olonets,60.9847,32.9698,22.7,55,62,1.12,RU,1690788829
462,narok,-1.0783,35.8601,23.11,44,82,1.48,KE,1690788829
463,barra de santo antonio,-9.4047,-35.5072,20.6,81,57,3.2,BR,1690788829
464,geraldton,-28.7667,114.6,21.23,64,0,4.63,AU,1690788829
465,manokwari,-0.8667,134.0833,28.36,75,49,2.42,ID,1690788830
466,troitskoye,52.9821,84.6757,28.93,36,7,2.72,RU,1690788830
467,puerto leguizamo,-0.1934,-74.7819,21.17,98,100,0.9,CO,1690788830
468,macapa,0.0389,-51.0664,25.99,100,0,2.06,BR,1690788609
469,dhidhdhoo,6.8833,73.1,28.52,76,100,6.51,MV,1690788830
470,kongolo,-5.3833,27.0,32.94,16,4,3.45,CD,1690788831
471,sydney,-33.8679,151.2073,20.76,46,0,2.57,AU,1690788629
472,mejit,10.2753,170.8646,28.36,80,100,8.07,MH,1690788831
473,suksun,57.1431,57.3949,26.66,51,50,6.35,RU,1690788831
474,minas de marcona,-15.2119,-75.1103,12.95,90,38,2.75,PE,1690788832
475,hassi messaoud,31.6804,6.0729,34.92,34,2,3.09,DZ,1690788832
476,sirte,31.2089,16.5887,28.1,67,0,3.3,LY,1690788832
477,santiago de cao,-7.9589,-79.2392,20.07,83,40,1.54,PE,1690788832
478,gbarnga,6.9956,-9.4722,22.5,97,100,0.69,LR,1690788832
479,porto novo,6.4965,2.6036,25.9,86,100,2.79,BJ,1690788833
480,kidal,18.4411,1.4078,35.54,28,1,6.82,ML,1690788716
481,haiku-pauwela,20.9219,-156.3051,25.02,77,20,5.14,US,1690788833
482,okhotsk,59.3833,143.3,12.5,88,100,7.41,RU,1690788833
483,kulhudhuffushi,6.6221,73.07,28.49,76,100,6.13,MV,1690788833
484,qarshi,38.8667,65.8,38.9,13,0,9.26,UZ,1690788834
485,balabac,7.9868,117.0645,30.27,65,7,0.73,PH,1690788834
486,villa gesell,-37.2639,-56.973,10.24,82,99,1.3,AR,1690788834
487,pagar alam,-4.0167,103.2667,26.66,60,93,2.72,ID,1690788835
488,havre,49.5833,0.3333,17.97,82,100,7.72,FR,1690788835
489,tidjikja,18.5564,-11.4271,27.86,62,85,8.43,MR,1690788835
490,jimbolia,45.7914,20.7172,26.21,49,92,4.9,RO,1690788835
491,pisco,-13.7,-76.2167,19.03,82,100,4.12,PE,1690788835
492,gannan,47.9147,123.5031,30.42,65,98,5.27,CN,1690788836
493,palmer,42.1584,-72.3287,15.84,85,20,0.0,US,1690788721
494,abeche,13.8292,20.8324,29.47,56,86,7.01,TD,1690788836
495,lompoc,34.6391,-120.4579,15.88,93,0,2.06,US,1690788836
496,tarko-sale,64.9225,77.785,23.74,48,20,6.17,RU,1690788836
497,thunder bay,48.4001,-89.3168,14.99,94,100,2.06,CA,1690788837
498,guiuan,11.0333,125.7247,29.6,77,19,6.25,PH,1690788837
499,dhuusamarreeb,5.535,46.3861,27.53,50,99,9.97,SO,1690788837
500,churachandpur,24.3333,93.6667,28.27,71,84,2.24,IN,1690788837
501,mantua,45.1667,10.7833,27.41,76,100,2.24,IT,1690788837
502,new norfolk,-42.7826,147.0587,10.72,89,99,7.4,AU,1690788570
503,namsos,64.4662,11.4957,15.95,82,40,2.06,NO,1690788838
504,kota kinabalu,5.9749,116.0724,33.99,70,20,2.68,MY,1690788838
505,sydney mines,46.2367,-60.2177,15.99,93,0,3.6,CA,1690788838
506,cidreira,-30.1811,-50.2056,14.0,81,100,2.17,BR,1690788838
507,humaita,-7.5061,-63.0208,21.96,53,4,1.24,BR,1690788839
508,nova sintra,14.8667,-24.7167,23.16,82,99,1.64,CV,1690788593
509,at taj,24.2049,23.2857,33.89,19,0,1.35,LY,1690788839
510,charters towers,-20.1,146.2667,21.6,22,6,4.77,AU,1690788839
511,kerikeri,-35.2268,173.9474,8.97,91,0,1.43,NZ,1690788840
512,pankrushikha,53.8319,80.3406,28.13,38,38,2.8,RU,1690788840
513,caraballeda,10.6112,-66.8522,26.87,87,75,0.0,VE,1690788840
514,gimbi,9.1667,35.8333,14.91,96,100,0.9,ET,1690788840
515,luau,-10.7073,22.2247,27.84,18,16,4.62,AO,1690788840
516,nortelandia,-14.4547,-56.8028,20.45,51,1,0.78,BR,1690788841
517,yardimli,38.9206,48.2372,22.42,67,89,3.08,AZ,1690788841
518,ulety,51.3572,112.4849,32.3,33,71,4.03,RU,1690788841
519,leava,-14.3,-178.1667,26.42,83,47,6.4,WF,1690788841
520,revelstoke,50.9832,-118.2023,15.01,72,0,1.03,CA,1690788842
521,high rock,26.6208,-78.2833,28.01,75,78,4.47,BS,1690788842
522,muroto-misakicho,33.2833,134.15,28.29,80,100,2.58,JP,1690788842
523,merritt island,28.5392,-80.672,25.61,90,0,1.54,US,1690788601
524,cody,44.5263,-109.0565,20.11,72,0,3.13,US,1690788843
525,ljusdal,61.8288,16.0913,18.42,64,98,1.33,SE,1690788843
526,kannur,11.8675,75.3576,28.96,69,63,5.53,IN,1690788843
527,amaga,6.04,-75.7031,21.0,97,99,0.6,CO,1690788843
528,dryden,49.7833,-92.7503,15.16,82,100,2.57,CA,1690788844
529,shanwei,22.782,115.3475,29.91,73,100,5.04,CN,1690788844
530,sechura,-5.5569,-80.8222,20.81,81,8,3.88,PE,1690788844
531,choele choel,-39.2667,-65.6833,13.15,66,100,1.93,AR,1690788844
532,enshi,30.3,109.4833,33.32,59,68,1.68,CN,1690788714
533,meulaboh,4.1363,96.1285,29.01,71,81,2.14,ID,1690788845
534,usinsk,65.9939,57.5281,27.1,41,9,2.46,RU,1690788845
535,langenthal,47.2153,7.7961,18.81,80,100,2.36,CH,1690788845
536,great falls,47.5002,-111.3008,22.45,56,0,3.6,US,1690788845
537,jinka,5.65,36.65,25.55,50,62,1.66,ET,1690788845
538,machico,32.7,-16.7667,23.35,81,20,6.17,PT,1690788846
539,singkil,-7.9855,111.4161,29.44,55,27,3.8,ID,1690788846
540,woolgoolga,-30.1106,153.2007,18.93,73,2,2.41,AU,1690788846
541,sawakin,19.1059,37.3321,40.4,30,79,8.12,SD,1690788846
542,kamaishi,39.2667,141.8833,27.83,73,99,1.64,JP,1690788847
543,tugulym,57.0591,64.6425,24.07,46,100,1.73,RU,1690788847
544,isfahan,32.6572,51.6776,32.8,11,0,4.29,IR,1690788847
545,namibe,-15.1961,12.1522,18.36,70,1,1.45,AO,1690788847
546,inverell,-29.7833,151.1167,19.26,47,1,1.97,AU,1690788848
547,augusta,48.3667,10.8833,19.63,77,20,4.12,DE,1690788834
548,gaspe,48.8334,-64.4819,12.95,100,0,1.54,CA,1690788848
549,victorica,-36.2151,-65.4359,12.54,64,100,4.65,AR,1690788848
550,itamaraca,-7.7478,-34.8256,23.03,85,25,4.47,BR,1690788849
551,tovarkovskiy,53.6822,38.2092,22.99,50,11,2.8,RU,1690788849
552,san buenaventura,27.0833,-101.5333,31.15,51,100,0.72,MX,1690788849
553,skelleftea,64.7507,20.9528,19.44,97,100,1.03,SE,1690788849
554,carauari,-4.8828,-66.8958,22.1,65,11,0.51,BR,1690788849
555,illela,13.7292,5.2975,31.44,53,12,6.79,NG,1690788850
556,ventspils,57.3894,21.5606,17.96,88,20,4.63,LV,1690788850
557,palora,-1.7,-77.9333,17.91,76,98,1.3,EC,1690788850
558,lianran,24.9227,102.485,25.3,72,72,2.8,CN,1690788850
559,guerrero negro,27.9769,-114.0611,21.23,83,0,2.92,MX,1690788704
560,barentu,15.1139,37.5928,28.53,52,14,3.81,ER,1690788851
561,srikakulam,18.3,83.9,31.12,66,100,4.47,IN,1690788851
562,salinas,36.6777,-121.6555,17.05,82,0,5.66,US,1690788593
563,san andres,12.5847,-81.7006,28.01,89,40,3.6,CO,1690788851
564,diapaga,12.0708,1.7889,27.21,73,98,4.74,BF,1690788852
565,astrakhan,46.3497,48.0408,30.93,29,0,2.0,RU,1690788852
566,selfoss,63.9331,-20.9971,12.25,90,95,0.76,IS,1690788852
567,saint-pierre,-21.3393,55.4781,24.76,53,0,2.06,RE,1690788852
568,kiunga,-6.1219,141.2906,24.78,91,96,1.09,PG,1690788852
569,ponta delgada,37.7333,-25.6667,26.39,94,75,3.09,PT,1690788853
570,mayya,61.7333,130.2811,20.62,61,1,5.86,RU,1690788853
571,manado,1.487,124.8455,33.43,62,20,3.09,ID,1690788853
572,razole,16.4833,81.8333,28.74,77,100,3.67,IN,1690788853
573,queenstown,-31.8976,26.8753,8.4,48,18,9.0,ZA,1690788854
574,panaba,21.2833,-88.2667,24.08,94,98,1.89,MX,1690788854
575,rumoi,43.9344,141.6428,22.42,91,89,2.28,JP,1690788854
576,san luis,-33.295,-66.3356,14.7,51,100,2.44,AR,1690788854
577,skikda,36.8762,6.9092,26.43,75,3,1.92,DZ,1690788566
578,yuzhno-kurilsk,44.0306,145.8556,18.77,98,100,2.43,RU,1690788855
579,redencao,-4.2258,-38.7306,21.29,97,23,1.41,BR,1690788855
580,stockach,47.85,9.0167,19.28,69,92,2.84,DE,1690788855
581,putla villa de guerrero,17.0333,-97.9333,20.32,93,22,2.33,MX,1690788856
582,cedeira,43.6797,-8.0209,18.87,82,2,4.92,ES,1690788856
583,svetlyy,54.675,20.1347,21.09,68,5,5.86,RU,1690788856
